{"type":"FeatureCollection","crs":{"type":"name","properties":{"name":"urn:ogc:def:crs:OGC:1.3:CRS84"}},"features":[{"type":"Feature","properties":{"Zip":"10105","Floor":"46","BIN":"1083719","Street":"1345 Avenue of the Americas","Lon":null,"City":"NY","Lat":null,"Name":"Fortress"},"geometry":{"type":"MultiPoint","coordinates":[[-73.97906675619979,40.762989655405484,0]]}},{"type":"Feature","properties":{"Zip":"10019","Floor":"39","BIN":"1035071","Street":"9 W 57th St","Lon":null,"City":"NY","Lat":null,"Name":"Och Ziff"},"geometry":{"type":"MultiPoint","coordinates":[[-73.97493827388742,40.763826870821894,0]]}},{"type":"Feature","properties":{"Zip":"10167","Floor":"44","BIN":"1036205","Street":"245 Park Avenue","Lon":null,"City":"NY","Lat":null,"Name":"Ares"},"geometry":{"type":"MultiPoint","coordinates":[[-73.97465866628337,40.75460428874391,0]]}},{"type":"Feature","properties":{"Zip":"10017","Floor":null,"BIN":"1035421","Street":"270 Park Avenue","Lon":null,"City":"NY","Lat":null,"Name":"JP Morgan"},"geometry":{"type":"MultiPoint","coordinates":[[-73.97558378233177,40.755882689985484,0]]}},{"type":"Feature","properties":{"Zip":"10036","Floor":null,"BIN":"1076193","Street":"1585 Broadway","Lon":null,"City":"NY","Lat":null,"Name":"Morgan Stanley"},"geometry":{"type":"MultiPoint","coordinates":[[-73.98541810293776,40.760054882089186,0]]}},{"type":"Feature","properties":{"Zip":"10022","Floor":null,"BIN":"1035727","Street":"520 Madison Avenue","Lon":null,"City":"NY","Lat":null,"Name":"Jefferies"},"geometry":{"type":"MultiPoint","coordinates":[[-73.97451614839014,40.76026480383503,0]]}},{"type":"Feature","properties":{"Zip":"10112","Floor":null,"BIN":"1076262","Street":"30 Rockefeller Plaza","Lon":null,"City":"NY","Lat":null,"Name":"Lazard"},"geometry":{"type":"MultiPoint","coordinates":[[-73.97933720816398,40.758960788844114,0]]}},{"type":"Feature","properties":{"Zip":"10019","Floor":null,"BIN":"1035053","Street":"730 Fifth Avenue","Lon":null,"City":"NY","Lat":null,"Name":"Raymond James"},"geometry":{"type":"MultiPoint","coordinates":[[-73.97455917740146,40.762909150707884,0]]}},{"type":"Feature","properties":{"Zip":"10154","Floor":"Suite 1200","BIN":"1036460","Street":"345 Park Avenue","Lon":null,"City":"NY","Lat":null,"Name":"Piper Jaffray"},"geometry":{"type":"MultiPoint","coordinates":[[-73.9723018894193,40.75773626643318,0]]}},{"type":"Feature","properties":{"Zip":"10019","Floor":null,"BIN":"1084667","Street":"745 7th Avenue","Lon":null,"City":"NY","Lat":null,"Name":"Barclays"},"geometry":{"type":"MultiPoint","coordinates":[[-73.98290727756459,40.760537250406884,0]]}},{"type":"Feature","properties":{"Zip":"10171","Floor":null,"BIN":"1036223","Street":"299 Park Avenue","Lon":null,"City":"NY","Lat":null,"Name":"GE Capital"},"geometry":{"type":"MultiPoint","coordinates":[[-73.97416864871798,40.75604127895432,0]]}},{"type":"Feature","properties":{"Zip":"10019","Floor":"11","BIN":"1023157","Street":"787 7th Avenue","Lon":null,"City":"NY","Lat":null,"Name":"Stifel Nicolaus"},"geometry":{"type":"MultiPoint","coordinates":[[-73.98177671703978,40.76169386836866,0]]}},{"type":"Feature","properties":{"Zip":"10036","Floor":null,"BIN":"1024686","Street":"3 Times Square","Lon":null,"City":"NY","Lat":null,"Name":"BMO"},"geometry":{"type":"MultiPoint","coordinates":[[-73.98708896754677,40.75656528966248,0]]}},{"type":"Feature","properties":{"Zip":"10019","Floor":null,"BIN":"1076203","Street":"Worldwide Plaza, 309 W 49th St","Lon":null,"City":"NY","Lat":null,"Name":"Nomura"},"geometry":{"type":"MultiPoint","coordinates":[[-73.98713471057287,40.76208784381401,0]]}},{"type":"Feature","properties":{"Zip":"10017","Floor":"14","BIN":"1035319","Street":"100 Park Avenue","Lon":null,"City":"NY","Lat":null,"Name":"Wells Fargo"},"geometry":{"type":"MultiPoint","coordinates":[[-73.97895965336629,40.75135885630728,0]]}},{"type":"Feature","properties":{"Zip":"10010","Floor":null,"BIN":"1088910","Street":"11 Madison Avenue","Lon":null,"City":"NY","Lat":null,"Name":"Credit Suisse"},"geometry":{"type":"MultiPoint","coordinates":[[-73.9868510171099,40.74165876827306,0]]}},{"type":"Feature","properties":{"Zip":"10036","Floor":"26","BIN":"1022667","Street":"114 W 47th St","Lon":null,"City":"NY","Lat":null,"Name":"IFM Investors"},"geometry":{"type":"MultiPoint","coordinates":[[-73.98302928042105,40.75811956917911,0]]}},{"type":"Feature","properties":{"Zip":"10017","Floor":null,"BIN":"1035434","Street":"12 E 49th St","Lon":null,"City":"NY","Lat":null,"Name":"Global Infrastructure Partners"},"geometry":{"type":"MultiPoint","coordinates":[[-73.97699697326111,40.75725099118158,0]]}},{"type":"Feature","properties":{"Zip":"10172","Floor":"45","BIN":"1076268","Street":"277  Park Avenue","Lon":null,"City":"NY","Lat":null,"Name":"Oaktree/Highstar"},"geometry":{"type":"MultiPoint","coordinates":[[-73.97444008231318,40.75538607784119,0]]}},{"type":"Feature","properties":{"Zip":"10019","Floor":"34","BIN":"1023161","Street":"1301 Avenue of the Americas","Lon":null,"City":"NY","Lat":null,"Name":"Oaktree Capital"},"geometry":{"type":"MultiPoint","coordinates":[[-73.98003216174536,40.76179106704157,0]]}},{"type":"Feature","properties":{"Zip":"10022","Floor":"25","BIN":"1035776","Street":"717 Fifth Avenue","Lon":null,"City":"NY","Lat":null,"Name":"Stonepeak"},"geometry":{"type":"MultiPoint","coordinates":[[-73.97403205443696,40.76174688657966,0]]}},{"type":"Feature","properties":{"Zip":"10154","Floor":null,"BIN":"1036205","Street":"245 Park Avenue","Lon":null,"City":"NY","Lat":null,"Name":"Blackstone"},"geometry":{"type":"MultiPoint","coordinates":[[-73.97465866628337,40.75460428874391,0]]}},{"type":"Feature","properties":{"Zip":"10019","Floor":"43","BIN":"1035071","Street":"9 W 57th St","Lon":null,"City":"NY","Lat":null,"Name":"Apollo"},"geometry":{"type":"MultiPoint","coordinates":[[-73.97493827388742,40.763826870821894,0]]}},{"type":"Feature","properties":{"Zip":"10019","Floor":"Suite 4200","BIN":"1035071","Street":"9 W 57th St","Lon":null,"City":"NY","Lat":null,"Name":"KKR"},"geometry":{"type":"MultiPoint","coordinates":[[-73.97493827388742,40.763826870821894,0]]}},{"type":"Feature","properties":{"Zip":"10022","Floor":null,"BIN":"1076267","Street":"40 E 52nd St","Lon":null,"City":"NY","Lat":null,"Name":"BlackRock"},"geometry":{"type":"MultiPoint","coordinates":[[-73.97409822818159,40.758599039469026,0]]}},{"type":"Feature","properties":{"Zip":"10055","Floor":null,"BIN":"1083869","Street":"55 E 52nd St","Lon":null,"City":"NY","Lat":null,"Name":"BlackRock"},"geometry":{"type":"MultiPoint","coordinates":[[-73.97361477996954,40.75907669007124,0]]}},{"type":"Feature","properties":{"Zip":"10001","Floor":null,"BIN":"1085401","Street":"220 Fifth Avenue, PH West","Lon":null,"City":"NY","Lat":null,"Name":"Vanguard"},"geometry":{"type":"MultiPoint","coordinates":[[-73.99924805057886,40.75345536741654,0]]}},{"type":"Feature","properties":{"Zip":"10019","Floor":null,"BIN":"1024812","Street":"1633 Broadway","Lon":null,"City":"NY","Lat":null,"Name":"PIMCO"},"geometry":{"type":"MultiPoint","coordinates":[[-73.9846411765571,40.76211097286949,0]]}}]}
